{"type":"FeatureCollection","features":[{"type":"Feature","geometry":{"type":"Point","coordinates":[103.862409,1.31042]},"properties":{"groups":["SG Hack & Tell","HASKELL.SG","3D For Everyone Meetup","SingaporeJS","HackerspaceSG Awesome Talks","WordPress Singapore","Hackware","The Singapore Linux Meetup Group","PUGS (Postgres Users Group Singapore)","FOSSASIA Singapore OpenXLab Meetup","Singapore Magento User Group","HackerspaceSG","Papers We Love Singapore","Engineers.SG","Subhransu Behera"],"address":"HackerspaceSG, 344B King George's Avenue, King George's Building, 208576, Singapore"}},{"type":"Feature","geometry":{"type":"Point","coordinates":[103.895674,1.306474]},"properties":{"groups":["SingaporeJS"],"address":"Tim & Wei's Residence, 244A Tanjong Katong Road, Singapore"}},{"type":"Feature","geometry":{"type":"Point","coordinates":[103.847069,1.280945]},"properties":{"groups":["DevOps Singapore","Singapore Elixir Meetup","Null Singapore - The Open Security Community","Singapore Scala Programmers","Singapore Software QA Meetup","DataKind SG","GoSG","Singapore Clojure Meetup"],"address":"Thoughtworks, 87B Amoy Street #04, Singapore 069906, Singapore"}},{"type":"Feature","geometry":{"type":"Point","coordinates":[103.8423509,1.27777]},"properties":{"groups":["HASKELL.SG","Singapore Clojure Meetup","Singapore Product Management Meetup"],"address":"Neo Innovation , 53A Craig Road , 089691, Singapore"}},{"type":"Feature","geometry":{"type":"Point","coordinates":[103.8484034,1.2818298]},"properties":{"groups":["Ruby Tea Party  (SG)","SingaporeJS","HackerNest Singapore Tech Socials"],"address":"TradeGecko Office, 101c Telok Ayer, 068574, Singapore"}},{"type":"Feature","geometry":{"type":"Point","coordinates":[103.8541121,1.2792463]},"properties":{"groups":["Agile Singapore","Live Agile Workshop & Forum Group"],"address":"Barclays, 10 Marina Boulevard, #23-01, Marina Bay Financial Centre Tower 2, Singapore"}},{"type":"Feature","geometry":{"type":"Point","coordinates":[103.8578323,1.2946917]},"properties":{"groups":["Singapore Spring User Group","Singapore iOS Dev Scout Meetup","Docker Singapore"],"address":"PayPal office in Suntec, 5 Temasek Blvd, #09-01 Suntec Tower Five, 038985 Nearest Mrt:Promenade(Yellow Line), Singapore"}},{"type":"Feature","geometry":{"type":"Point","coordinates":[103.787216,1.296721]},"properties":{"groups":["Meteor Singapore","Singapore iOS Dev Scout Meetup","Bluemix Singapore","Hackware","Singapore Coding Meetup","Asia VR Association - Singapore Virtual Reality meetup","Ethereum Singapore","AsiaVR Association - Singapore Virtual Reality meetup","PUGS (Postgres Users Group Singapore)","Android In Asia","Front End Developers Singapore","Singapore Ruby Group","Data Night Singapore","SingaporeCSS","Carousell","AsiaVR Association - Singapore Virtual Reality Meetup Group","National Supercomputing Centre","PyLadies SG","HackerNest Singapore Tech Socials","Google Cloud Platform User Group Singapore"],"address":"NUS Plug-In@Blk71 (the NEW Co-Working Space), 71 Ayer Rajah Crescent, #02-01, 139951, Singapore, Singapore"}},{"type":"Feature","geometry":{"type":"Point","coordinates":[103.8578323,1.2946917]},"properties":{"groups":["Singapore Cloud Foundry Meetup","Singapore iOS Dev Scout Meetup","Singapore Geek Girls","Singapore CSS","Singapore Clojure Meetup"],"address":"Paypal at Suntec , 5 Temasek Blvd, #07-01 Suntec Tower Five, Nearest Mrt:Promenade(Yellow Line), Singapore"}},{"type":"Feature","geometry":{"type":"Point","coordinates":[103.8592661,1.2862737]},"properties":{"groups":["ArtScience Museum"],"address":"ArtScience Museum"}},{"type":"Feature","geometry":{"type":"Point","coordinates":[103.8542337,1.2808099]},"properties":{"groups":["SingaporeJS","R User Group - Singapore (RUGS)",".NET Developers Singapore","Microsoft User Groups (Singapore)","DataScience SG"],"address":"Microsoft Auditorium (Singapore), One Marina Boulevard, Level 21 Auditorium, Singapore 018989 "}},{"type":"Feature","geometry":{"type":"Point","coordinates":[103.850514,1.333791]},"properties":{"groups":["Creative Crew Singapore"],"address":"Toa Payoh Public Library, 6 Toa Payoh Central, Singapore 319191"}},{"type":"Feature","geometry":{"type":"Point","coordinates":[103.849487,1.279644]},"properties":{"groups":["HASKELL.SG","Ruby Tea Party  (SG)","Singapore Ruby Group","PyData Singapore"],"address":"Skyscanner, 39 Robinson Road, #09-01 Robinson Point, Singapore 068911"}},{"type":"Feature","geometry":{"type":"Point","coordinates":[103.8578323,1.2946917]},"properties":{"groups":["Singapore Ruby Group","Grumpy Gits SG","Agile Singapore","DataScience SG","Singapore Python User Group"],"address":"PayPal, 5 Temasek Blvd, #09-01 Suntec Tower Five, 038985, Singapore"}},{"type":"Feature","geometry":{"type":"Point","coordinates":[103.851813,1.2987169]},"properties":{"groups":["Drupal Developer Network (Singapore)"],"address":"SmartSpace, 261 Waterloo Street, #03-32, Singapore 180261"}},{"type":"Feature","geometry":{"type":"Point","coordinates":[103.7888079,1.2989745]},"properties":{"groups":["Singapore Ruby Group","Agile Singapore"],"address":"Sandcrawler, 1 Fusionopolis View #08-01 S138577, Singapore"}},{"type":"Feature","geometry":{"type":"Point","coordinates":[103.836024,1.282396]},"properties":{"groups":["Singapore Amateur Radio Transmitting Society"],"address":"Medical Alumni Association"}},{"type":"Feature","geometry":{"type":"Point","coordinates":[103.7888079,1.2989745]},"properties":{"groups":["ReactJS Singapore","DataScience SG","Singapore Software QA Meetup"],"address":"Hive@Sandcrawler, 1 Fusionopolis View #08-01, Singapore"}},{"type":"Feature","geometry":{"type":"Point","coordinates":[103.8578303,1.294638]},"properties":{"groups":["The Singapore Security Meetup Group","Null Singapore - The Open Security Community"],"address":"Akamai Singapore office, 1 Raffles Place, #16-61, One Raffles Place Tower 2, Singapore 048616"}},{"type":"Feature","geometry":{"type":"Point","coordinates":[103.7383967,1.33023]},"properties":{"groups":["Maker Faire Singapore"],"address":"Science Centre Singapore"}},{"type":"Feature","geometry":{"type":"Point","coordinates":[103.819836,1.352083]},"properties":{"groups":["DesignDojo Singapore","Design Dojo Singapore","Docker Singapore","SingaporeCSS"],"address":"Rakuten Crimson House, 138 Market Street, Lvl 32, CapitaGreen, 048946, Singapore"}},{"type":"Feature","geometry":{"type":"Point","coordinates":[103.8423509,1.27777]},"properties":{"groups":["HASKELL.SG","Singapore Ruby Group","Singapore Djangonauts","Singapore Cloud Foundry Meetup"],"address":"Pivotal Labs Singapore, 53A Craig Road"}},{"type":"Feature","geometry":{"type":"Point","coordinates":[103.859275,1.2863163]},"properties":{"groups":["ArtScience Museum"],"address":"ArtScience Museum, 10 Bayfront Avenue, Singapore 018956"}}]}