{"type":"FeatureCollection","features":[{"type":"Feature","geometry":{"type":"Point","coordinates":[103.857925,1.294575]},"properties":{"groups":["SingaporeJS"],"address":"PayPal Singapore, Suntec Tower 5, 5 Temasek Boulevard #09-01 "}},{"type":"Feature","geometry":{"type":"Point","coordinates":[103.8505252,1.3335475]},"properties":{"groups":["Creative Crew Singapore"],"address":"Toa Payoh Public Library, 6 Toa Payoh Central, Singapore 319191"}},{"type":"Feature","geometry":{"type":"Point","coordinates":[103.8473349,1.2759058]},"properties":{"groups":["Singapore Python User Group","OpenStack Singapore","FOSSASIA Singapore OpenXLab Meetup"],"address":"8 Shenton Way, #10-00 AXA Tower, Red Hat Asia Pacific Pte Ltd, Singapore"}},{"type":"Feature","geometry":{"type":"Point","coordinates":[103.853512,1.2985119]},"properties":{"groups":["Maker Faire Singapore","DataKind SG","Hackware","Singapore Makers","Lean Kanban Singapore (Limited WIP Society)","Agile Coaching Circles Singapore","Singapore Scala Programmers","DataScience SG","OneMaker Group - OMG","IDA Labs","The Singapore PHP User Group Meetup","General Assembly Singapore","Sustainable Living Lab (SL2)","CodingGirls SG","OneMaker Group (OMG)","Singapore PHP User Group","IxDA Singapore","Singapore Ruby Group","PyData Singapore","Singapore DC/OS User Group","Singapore Self-driving Car Engineering Meetup","Singapore Full Stack Developer","Women Who Code Singapore","NeuroTechSG"],"address":"#03-04, IDA Labs@NDC 111 Middle Road, National Design Centre, Singapore 188969., IDA Labs@NDC 111 Middle Road, National Design Centre"}},{"type":"Feature","geometry":{"type":"Point","coordinates":[103.862473,1.310393]},"properties":{"groups":["HASKELL.SG","FOSSASIA Singapore OpenXLab Meetup","The Singapore Linux Meetup Group","Singapore Magento User Group","HackerspaceSG","PUGS (Postgres Users Group Singapore)","Papers We Love Singapore","WordPress Singapore","Engineers.SG","Subhransu Behera"],"address":"HackerspaceSG, 344B King George's Avenue, King George's Building, 208576, Singapore"}},{"type":"Feature","geometry":{"type":"Point","coordinates":[103.857925,1.294575]},"properties":{"groups":["DataScience SG","Singapore Python User Group","Singapore Creative Coding Meetup","Singapore MusicTech Meetup","SingaporeCSS","Women Who Code Singapore"],"address":"PayPal, 5 Temasek Blvd, #09-01 Suntec Tower Five, 038985, Singapore"}},{"type":"Feature","geometry":{"type":"Point","coordinates":[103.8487429,1.2807142]},"properties":{"groups":["GoSG","Singapore iOS Dev Scout Meetup","Singapore Ruby Group","IxDA Singapore","Grab Tech Thursdays"],"address":"Grab, 138 Cecil Street, #16-01 Cecil Court, Singapore 069538, Singapore"}},{"type":"Feature","geometry":{"type":"Point","coordinates":[103.857925,1.294575]},"properties":{"groups":["Singapore Spring User Group","Singapore iOS Dev Scout Meetup","Hackware","Docker Singapore","Singapore Java User Group"],"address":"PayPal office in Suntec, 5 Temasek Blvd, #09-01 Suntec Tower Five, 038985 Nearest Mrt:Promenade(Yellow Line), Singapore"}},{"type":"Feature","geometry":{"type":"Point","coordinates":[103.852437,1.282387]},"properties":{"groups":["R User Group - Singapore (RUGS)","DataScience SG","Microsoft User Groups (Singapore)",".NET Developers Singapore","Visual Studio ALM Singapore","Singapore Xamarin User group","Hacks/Hackers Singapore","DataKind SG","Singapore Mobile .Net Developers","Visual Studio DevOps Singapore"],"address":"Microsoft Auditorium (Singapore), One Marina Boulevard, Level 21 Auditorium, Singapore 018989 "}},{"type":"Feature","geometry":{"type":"Point","coordinates":[103.8470646,1.2810715]},"properties":{"groups":["Null Singapore - The Open Security Community","GoSG","DevOps Singapore","DevSecOps Singapore","DataKind SG","Singapore Scala Programmers","Singapore Spring User Group"],"address":"ThoughtWorks, 87B Amoy Street #04, Singapore 069906, Singapore, Singapore"}},{"type":"Feature","geometry":{"type":"Point","coordinates":[103.852437,1.282387]},"properties":{"groups":["Microsoft User Groups (Singapore)"],"address":"Microsoft Singapore, One Marina Boulevard, Level 22, Meeting Room"}},{"type":"Feature","geometry":{"type":"Point","coordinates":[103.8494861,1.2796413]},"properties":{"groups":["PyData Singapore","CodingGirls SG","HackerNest Singapore Tech Socials","WordPress Singapore"],"address":"Skyscanner, 39 Robinson Road, #09-01 Robinson Point, Singapore 068911"}},{"type":"Feature","geometry":{"type":"Point","coordinates":[103.852437,1.282387]},"properties":{"groups":["Visual Studio ALM Singapore","WordPress Singapore","Singapore Mobile .Net Developers"],"address":"Microsoft Singapore, Level 22, Room CF12, One Marina Boulevard, Singapore 018989"}},{"type":"Feature","geometry":{"type":"Point","coordinates":[103.825649,1.291052]},"properties":{"groups":["Singapore Ruby Group","Docker Singapore","Cloud Native Singapore","Elm Singapore"],"address":"Honestbee, #04-01B Delta House, 2 Alexandra Road, 159919, Singapore"}},{"type":"Feature","geometry":{"type":"Point","coordinates":[103.852437,1.282387]},"properties":{"groups":["Microsoft User Groups (Singapore)"],"address":"Microsoft Operations Pte Ltd, 22CF12, Level 22, One Marina Boulevard, Singapore"}},{"type":"Feature","geometry":{"type":"Point","coordinates":[103.8950269,1.3079162]},"properties":{"groups":["Null Singapore - The Open Security Community"],"address":"Singapore, North, East, South, West"}},{"type":"Feature","geometry":{"type":"Point","coordinates":[103.8453116,1.274935]},"properties":{"groups":["ProductTank Singapore"],"address":"Yahoo Singapore, 60 Anson Rd, 079914"}},{"type":"Feature","geometry":{"type":"Point","coordinates":[103.8592661,1.2862737]},"properties":{"groups":["ArtScience Museum","DevFest.Asia","KopiJS","Hackware"],"address":"FabCafe Singapore, ArtScience Museum, 6 Bayfront Avenue, S018974, "}},{"type":"Feature","geometry":{"type":"Point","coordinates":[103.8519466,1.303051]},"properties":{"groups":["Singapore Scala Programmers"],"address":"Lowercase, 1 McNally St, Blk D #01-01, Singapore"}},{"type":"Feature","geometry":{"type":"Point","coordinates":[103.8480068,1.2812571]},"properties":{"groups":["HackerNest Singapore Tech Socials","Ruby Tea Party  (SG)","Singapore Ruby Group"],"address":"TradeGecko, 121 Telok Ayer St, Singapore 068590"}},{"type":"Feature","geometry":{"type":"Point","coordinates":[103.852437,1.282387]},"properties":{"groups":["Singapore Magento User Group"],"address":"Microsoft Singapore, One Marina Boulevard, Level 22, 018989, Singapore"}},{"type":"Feature","geometry":{"type":"Point","coordinates":[103.7358111,1.3334158]},"properties":{"groups":["Science Centre Singapore "],"address":"Science Centre Singapore, 15 Science Centre Road, Singapore 609081"}},{"type":"Feature","geometry":{"type":"Point","coordinates":[103.777515,1.332948]},"properties":{"groups":["Fedora in Singapore","SG Web Programming Workshop"],"address":"Ngee Ann Polytechnic, 535 Clementi Road, Singapore 599489"}},{"type":"Feature","geometry":{"type":"Point","coordinates":[103.773204,1.3053507]},"properties":{"groups":["OpenBio Singapore"],"address":"Starbucks at University Town, NUS, 8 College Ave East, Singapore"}},{"type":"Feature","geometry":{"type":"Point","coordinates":[103.849345,1.2899203]},"properties":{"groups":["General Assembly Singapore","DevFest.Asia"],"address":"Collision 8, 1 North Bridge Road, #08-08, Singapore 179094"}},{"type":"Feature","geometry":{"type":"Point","coordinates":[103.8318502,1.3077426]},"properties":{"groups":["Singapore Geek Girls","General Assembly Singapore","WordPress Singapore","DevFest.Asia","Singapore Ruby Group","CodingGirls SG","Hackware"],"address":"General Assembly, 8 Claymore Hill, Level #03-01, Spacemob, Singapore 229572"}},{"type":"Feature","geometry":{"type":"Point","coordinates":[103.7723125,1.3046014]},"properties":{"groups":["NUS Hackers"],"address":"SR3, Town Plaza, University Town, NUS, , Singapore"}},{"type":"Feature","geometry":{"type":"Point","coordinates":[103.775662,1.292432]},"properties":{"groups":["Apache Apex Next Gen Native Hadoop Big Data, Singapore","Hackware","CodingGirls SG","NUS Hackers"],"address":"The Hangar, iCube, #01-01/02, 21 Heng Mui Keng Terrace, Singapore 119613, "}},{"type":"Feature","geometry":{"type":"Point","coordinates":[103.8351346,1.2902491]},"properties":{"groups":["#IoTSG","Next Gen Native Hadoop Big Data Apex Users Group, Singapore"],"address":"Millennium Grand Copthorne Waterfront Hotel,  392 Havelock Road, Singapore, 169663 "}},{"type":"Feature","geometry":{"type":"Point","coordinates":[103.843198,1.279576]},"properties":{"groups":["OneSmartPlace.co - Singapore IoT Hub"],"address":"Alpha Camp, 43B Tanjong Pagar Road, Singapore"}},{"type":"Feature","geometry":{"type":"Point","coordinates":[103.8475434,1.2881179]},"properties":{"groups":["Ethereum Singapore","Singapore Self-driving Car Engineering Meetup","Artificial Intelligence Singapore"],"address":"SGInnovate, 32 Carpenter Street, Singapore"}}]}