{"type":"FeatureCollection","features":[{"type":"Feature","geometry":{"type":"Point","coordinates":[103.819836,1.352083]},"properties":{"name":"Barclays, 10 Marina Boulevard, #23-01, Marina Bay Financial Centre Tower 2, Singapore","address":"Barclays, 10 Marina Boulevard, #23-01, Marina Bay Financial Centre Tower 2, Singapore"}},{"type":"Feature","geometry":{"type":"Point","coordinates":[null,null]},"properties":{"name":"#03-04, IDA Labs@NDC 111 Middle Road, National Design Centre, Singapore 188969., IDA Labs@NDC 111 Middle Road, National Design Centre","address":"#03-04, IDA Labs@NDC 111 Middle Road, National Design Centre, Singapore 188969., IDA Labs@NDC 111 Middle Road, National Design Centre"}},{"type":"Feature","geometry":{"type":"Point","coordinates":[null,null]},"properties":{"name":"ArtScience Museum","address":"ArtScience Museum"}},{"type":"Feature","geometry":{"type":"Point","coordinates":[103.819836,1.352083]},"properties":{"name":"PayPal office in Suntec, 5 Temasek Blvd, #09-01 Suntec Tower Five, 038985 Nearest Mrt:Promenade(Yellow Line), Singapore","address":"PayPal office in Suntec, 5 Temasek Blvd, #09-01 Suntec Tower Five, 038985 Nearest Mrt:Promenade(Yellow Line), Singapore"}},{"type":"Feature","geometry":{"type":"Point","coordinates":[103.850514,1.333791]},"properties":{"name":"Toa Payoh Public Library, Programme Zone, , 6 Toa Payoh Central, Singapore 319191","address":"Toa Payoh Public Library, Programme Zone, , 6 Toa Payoh Central, Singapore 319191"}},{"type":"Feature","geometry":{"type":"Point","coordinates":[103.787216,1.296721]},"properties":{"name":"Plugin-In@BLK 71 Managed by NUS Enterprise, 71 Ayer Rajah Crescent, #02-18, Singapore 139951","address":"Plugin-In@BLK 71 Managed by NUS Enterprise, 71 Ayer Rajah Crescent, #02-18, Singapore 139951"}},{"type":"Feature","geometry":{"type":"Point","coordinates":[103.845134,1.279866]},"properties":{"name":"Urban Redevelopment Authority, The URA Centre Atrium, 45 Maxwell Road, Singapore 069118","address":"Urban Redevelopment Authority, The URA Centre Atrium, 45 Maxwell Road, Singapore 069118"}},{"type":"Feature","geometry":{"type":"Point","coordinates":[103.852437,1.282387]},"properties":{"name":"Microsoft Auditorium (Singapore), One Marina Boulevard, Level 21 Auditorium, Singapore 018989 ","address":"Microsoft Auditorium (Singapore), One Marina Boulevard, Level 21 Auditorium, Singapore 018989 "}},{"type":"Feature","geometry":{"type":"Point","coordinates":[103.847069,1.280945]},"properties":{"name":"ThoughtWorks Pte. Ltd.,  87B Amoy Street, Level 3, Singapore 069906","address":"ThoughtWorks Pte. Ltd.,  87B Amoy Street, Level 3, Singapore 069906"}},{"type":"Feature","geometry":{"type":"Point","coordinates":[103.819836,1.352083]},"properties":{"name":"Hackerspace.SG, 344B King George's Ave, King George's Building, Singapore","address":"Hackerspace.SG, 344B King George's Ave, King George's Building, Singapore"}},{"type":"Feature","geometry":{"type":"Point","coordinates":[103.84567,1.282574]},"properties":{"name":"237 (http://237.io/), 237 South Bridge Road Singapore 058786","address":"237 (http://237.io/), 237 South Bridge Road Singapore 058786"}},{"type":"Feature","geometry":{"type":"Point","coordinates":[null,null]},"properties":{"name":"SR3, Town Plaza, UTown","address":"SR3, Town Plaza, UTown"}},{"type":"Feature","geometry":{"type":"Point","coordinates":[null,null]},"properties":{"name":"22CF12, Level 22, Microsoft Singapore, Singapore 018989, One Marina Boulevard","address":"22CF12, Level 22, Microsoft Singapore, Singapore 018989, One Marina Boulevard"}},{"type":"Feature","geometry":{"type":"Point","coordinates":[103.8500542,1.2859557]},"properties":{"name":"The Penny Black,  26/27 Boat Quay, Singapore 049817.","address":"The Penny Black,  26/27 Boat Quay, Singapore 049817."}},{"type":"Feature","geometry":{"type":"Point","coordinates":[103.6258031,1.2747225]},"properties":{"name":"PayPal Singapore, Millenia Tower, 1 Temasek Avenue, Level 14, Singapore 039192, Singapore","address":"PayPal Singapore, Millenia Tower, 1 Temasek Avenue, Level 14, Singapore 039192, Singapore"}},{"type":"Feature","geometry":{"type":"Point","coordinates":[null,null]},"properties":{"name":"Microsoft Singapore, One Marina Boulevard, Level 22, Meeting Room","address":"Microsoft Singapore, One Marina Boulevard, Level 22, Meeting Room"}},{"type":"Feature","geometry":{"type":"Point","coordinates":[103.851813,1.2987169]},"properties":{"name":"261, Waterloo Street,#04-35, Waterloo Centre, Singapore 180261, 261, Waterloo Street,#04-35, Waterloo Centre, Singapore 180261","address":"261, Waterloo Street,#04-35, Waterloo Centre, Singapore 180261, 261, Waterloo Street,#04-35, Waterloo Centre, Singapore 180261"}},{"type":"Feature","geometry":{"type":"Point","coordinates":[103.819836,1.352083]},"properties":{"name":"TradeGecko Office, 101c Telok Ayer, 068574, Singapore","address":"TradeGecko Office, 101c Telok Ayer, 068574, Singapore"}},{"type":"Feature","geometry":{"type":"Point","coordinates":[103.7383967,1.33023]},"properties":{"name":"Science Centre Singapore","address":"Science Centre Singapore"}},{"type":"Feature","geometry":{"type":"Point","coordinates":[103.849487,1.279644]},"properties":{"name":"Skyscanner, 39 Robinson Road, #09-01 Robinson Point, Singapore 068911","address":"Skyscanner, 39 Robinson Road, #09-01 Robinson Point, Singapore 068911"}},{"type":"Feature","geometry":{"type":"Point","coordinates":[103.8423509,1.27777]},"properties":{"name":"Neo Innovation , 53A Craig Road , 089691, Singapore","address":"Neo Innovation , 53A Craig Road , 089691, Singapore"}},{"type":"Feature","geometry":{"type":"Point","coordinates":[103.895674,1.306474]},"properties":{"name":"Tim & Wei's Residence, 244A Tanjong Katong Road, Singapore","address":"Tim & Wei's Residence, 244A Tanjong Katong Road, Singapore"}},{"type":"Feature","geometry":{"type":"Point","coordinates":[null,null]},"properties":{"name":"AWS Offices Singapore, 23 Church Street, Capital Square, #10-01, Singapore - 049481, +65-67220300","address":"AWS Offices Singapore, 23 Church Street, Capital Square, #10-01, Singapore - 049481, +65-67220300"}},{"type":"Feature","geometry":{"type":"Point","coordinates":[103.819836,1.352083]},"properties":{"name":"Lowercase, 1 McNally St, Blk D #01-01, Singapore","address":"Lowercase, 1 McNally St, Blk D #01-01, Singapore"}},{"type":"Feature","geometry":{"type":"Point","coordinates":[103.8487542,1.2840123]},"properties":{"name":"Amazon Web Services Singapore, #10-01, 23 Church Street, Singapore 049481","address":"Amazon Web Services Singapore, #10-01, 23 Church Street, Singapore 049481"}},{"type":"Feature","geometry":{"type":"Point","coordinates":[103.8564136,1.3775404]},"properties":{"name":"The Hive, Blk K, Level 4 Room K407, , ITE College Central, 2 Ang Mo Kio Drive, Singapore 567720","address":"The Hive, Blk K, Level 4 Room K407, , ITE College Central, 2 Ang Mo Kio Drive, Singapore 567720"}},{"type":"Feature","geometry":{"type":"Point","coordinates":[103.819836,1.352083]},"properties":{"name":"Hive@Sandcrawler, 1 Fusionopolis View #08-01, Singapore","address":"Hive@Sandcrawler, 1 Fusionopolis View #08-01, Singapore"}},{"type":"Feature","geometry":{"type":"Point","coordinates":[null,null]},"properties":{"name":"SR3, Town Plaza, University Town, National University of Singapore","address":"SR3, Town Plaza, University Town, National University of Singapore"}}]}