{"type":"FeatureCollection","features":[{"type":"Feature","geometry":{"type":"Point","coordinates":[103.851813,1.2987169]},"properties":{"groups":["Live Agile Workshop & Forum Group","Drupal Developer Network (Singapore)"],"address":"261, Waterloo Street,#04-35, Waterloo Centre, Singapore 180261, 261, Waterloo Street,#04-35, Waterloo Centre, Singapore 180261"}},{"type":"Feature","geometry":{"type":"Point","coordinates":[103.788034,1.298131]},"properties":{"groups":["Singapore WebRTC Meetup","FOSSASIA Singapore Open Technology Meetup","Singapore PaaS & Bluemix Group","Bluemix Singapore","Creative Coders","Singapore iOS Dev Scout Meetup","Girls In Tech Singapore","Front End Developers Singapore","National Environment Agency","Mobile Growth Hackers Singapore","Meteor Singapore","Hackware","Singapore Coding Meetup","Asia VR Association - Singapore Virtual Reality meetup","Ethereum Singapore"],"address":"Lithan Accelerator, Launchpad@one-north Blk 79, Ayer Rajah Crescent #04-04 Singapore 139955 "}},{"type":"Feature","geometry":{"type":"Point","coordinates":[103.8542337,1.2808099]},"properties":{"groups":[".NET Developers Singapore","Microsoft User Groups (Singapore)","SingaporeJS","Singapore Mobile .Net Developers","Lean Kanban Singapore (Limited WIP Society)","Azure Community Singapore (ACS)","DataScience SG","Agile Singapore","R User Group - Singapore (RUGS)"],"address":"Microsoft Auditorium (Singapore), One Marina Boulevard, Level 21 Auditorium, Singapore 018989 "}},{"type":"Feature","geometry":{"type":"Point","coordinates":[103.8603403,1.2927927]},"properties":{"groups":["GoSG","Drupal Developer Network (Singapore)","Singapore Ruby Group","Meteor Singapore"],"address":"PayPal Singapore, Millenia Tower, 1 Temasek Avenue, Level 14, Singapore 039192, Singapore"}},{"type":"Feature","geometry":{"type":"Point","coordinates":[103.862409,1.31042]},"properties":{"groups":["FOSSASIA Singapore Open Technology Meetup","Meteor Singapore","Hackware","Singapore Python User Group","HASKELL.SG","Bluemix Singapore","3D For Everyone Meetup","PUGS (Postgres Users Group Singapore)","SG Hack & Tell","SingaporeJS","HackerspaceSG Awesome Talks","WordPress Singapore","The Singapore Linux Meetup Group"],"address":"Hackerspace.SG, 344B King George's Ave, King George's Building, Singapore"}},{"type":"Feature","geometry":{"type":"Point","coordinates":[103.8484034,1.2818298]},"properties":{"groups":["Ruby Tea Party","Ruby Tea Party  (SG)","SingaporeJS"],"address":"TradeGecko Office, 101c Telok Ayer, 068574, Singapore"}},{"type":"Feature","geometry":{"type":"Point","coordinates":[103.850514,1.333791]},"properties":{"groups":["Creative Crew Singapore"],"address":"Toa Payoh Public Library, Programme Zone, , 6 Toa Payoh Central, Singapore 319191"}},{"type":"Feature","geometry":{"type":"Point","coordinates":[103.7383967,1.33023]},"properties":{"groups":["Singapore Mini Maker Faire","Maker Faire Singapore"],"address":"Science Centre Singapore"}},{"type":"Feature","geometry":{"type":"Point","coordinates":[103.8592661,1.2862737]},"properties":{"groups":["ArtScience Museum"],"address":"ArtScience Museum"}},{"type":"Feature","geometry":{"type":"Point","coordinates":[103.849487,1.279644]},"properties":{"groups":["PyData Singapore","HASKELL.SG","Ruby Tea Party  (SG)","Singapore Ruby Group"],"address":"Skyscanner, 39 Robinson Road, #09-01 Robinson Point, Singapore 068911"}},{"type":"Feature","geometry":{"type":"Point","coordinates":[103.84567,1.282574]},"properties":{"groups":["DevOps Singapore","Singapore iOS Developer Meetup","UP Singapore","Health 2.0 Singapore","R User Group - Singapore (RUGS)","Analytics.Club Singapore"],"address":"237 (http://237.io/), 237 South Bridge Road Singapore 058786"}},{"type":"Feature","geometry":{"type":"Point","coordinates":[103.8423509,1.27777]},"properties":{"groups":["Null Singapore - The Open Security Community","Singapore Clojure Meetup","HASKELL.SG","Singapore Product Management Meetup"],"address":"Neo Innovation , 53A Craig Road , 089691, Singapore"}},{"type":"Feature","geometry":{"type":"Point","coordinates":[103.8500542,1.2859557]},"properties":{"groups":["Lean Kanban Singapore (Limited WIP Society)","APM Meetup SG","DevOps Singapore","Kx Community Singapore Meetup"],"address":"The Penny Black,  26/27 Boat Quay, Singapore 049817."}},{"type":"Feature","geometry":{"type":"Point","coordinates":[103.847069,1.280945]},"properties":{"groups":["Singapore Dribbble Group","Singapore Python User Group","Singapore Ruby Group","Singapore Scala Programmers","Grumpy Gits SG","DataKind SG","Null Singapore - The Open Security Community","Singapore Cloud Foundry Meetup","Singapore Software QA Meetup","DevOps Singapore","Singapore Elixir Meetup","GoSG","Singapore Clojure Meetup"],"address":"ThoughtWorks Pte. Ltd. 87B Amoy Street, Level 3 Singapore 069906"}},{"type":"Feature","geometry":{"type":"Point","coordinates":[103.895674,1.306474]},"properties":{"groups":["SingaporeJS"],"address":"Tim & Wei's Residence, 244A Tanjong Katong Road, Singapore"}},{"type":"Feature","geometry":{"type":"Point","coordinates":[103.8541121,1.2792463]},"properties":{"groups":["Agile Singapore","Live Agile Workshop & Forum Group"],"address":"Barclays, 10 Marina Boulevard, #23-01, Marina Bay Financial Centre Tower 2, Singapore"}},{"type":"Feature","geometry":{"type":"Point","coordinates":[103.8513396,1.3025743]},"properties":{"groups":["Singapore Scala Programmers"],"address":"Lowercase, 1 McNally St, Blk D #01-01, Singapore"}},{"type":"Feature","geometry":{"type":"Point","coordinates":[103.8487542,1.2840123]},"properties":{"groups":["Meteor Singapore","WordPress Singapore","Apache Lucene/Solr SG","Grumpy Gits SG","IGDA Singapore","Singapore WordPress User Group"],"address":"Amazon Web Services Singapore, #10-01, 23 Church Street, Singapore 049481"}},{"type":"Feature","geometry":{"type":"Point","coordinates":[103.8578323,1.2946917]},"properties":{"groups":["Hackware","Singapore Spring User Group","Singapore iOS Dev Scout Meetup","Docker Singapore"],"address":"PayPal office in Suntec, 5 Temasek Blvd, #09-01 Suntec Tower Five, 038985 Nearest Mrt:Promenade(Yellow Line), Singapore"}},{"type":"Feature","geometry":{"type":"Point","coordinates":[103.8564136,1.3775404]},"properties":{"groups":["MTC2015"],"address":"The Hive, Blk K, Level 4 Room K407, , ITE College Central, 2 Ang Mo Kio Drive, Singapore 567720"}},{"type":"Feature","geometry":{"type":"Point","coordinates":[103.819836,1.352083]},"properties":{"groups":["Singapore Ruby Group","Grumpy Gits SG","Agile Singapore"],"address":"PayPal, 5 Temasek Blvd, #09-01 Suntec Tower Five, 038985, Singapore"}},{"type":"Feature","geometry":{"type":"Point","coordinates":[100.4870605,13.758107]},"properties":{"groups":["Singapore Amateur Radio Transmitting Society"],"address":"Medical Alumni Association"}},{"type":"Feature","geometry":{"type":"Point","coordinates":[103.7896189,1.2993477]},"properties":{"groups":["ReactJS Singapore","DataScience SG"],"address":"Hive@Sandcrawler, 1 Fusionopolis View #08-01, Singapore"}},{"type":"Feature","geometry":{"type":"Point","coordinates":[103.8578303,1.294638]},"properties":{"groups":["The Singapore Security Meetup Group","Null Singapore - The Open Security Community"],"address":"Akamai Singapore office, 1 Raffles Place, #16-61, One Raffles Place Tower 2, Singapore 048616"}}]}