{"type":"FeatureCollection","features":[{"type":"Feature","geometry":{"type":"Point","coordinates":[103.7893207,1.2996411]},"properties":{"groups":["Agile Singapore","Singapore Ruby Group"],"address":"Sandcrawler, 1 Fusionopolis View #08-01 S138577, Singapore"}},{"type":"Feature","geometry":{"type":"Point","coordinates":[103.788034,1.298131]},"properties":{"groups":["Bluemix Singapore","Hackware","Meteor Singapore","Singapore Coding Meetup","Asia VR Association - Singapore Virtual Reality meetup","Ethereum Singapore","AsiaVR Association - Singapore Virtual Reality meetup","PUGS (Postgres Users Group Singapore)","Android In Asia","Front End Developers Singapore","Singapore Ruby Group","Data Night Singapore","SingaporeCSS","Carousell","AsiaVR Association - Singapore Virtual Reality Meetup Group","National Supercomputing Centre","PyLadies SG","HackerNest Singapore Tech Socials","Google Cloud Platform User Group Singapore","A*PECSS and A*STARTCentral","Data Night","UP Singapore","IBM","#IoTSG"],"address":"A*START Central, #05-01, JTC Launchpad, Blk 79, Ayer Rajah Crescent, Opposite to Fusionopolis, Singapore 139955"}},{"type":"Feature","geometry":{"type":"Point","coordinates":[103.895674,1.306474]},"properties":{"groups":["SingaporeJS"],"address":"Tim & Wei's Residence, 244A Tanjong Katong Road, Singapore"}},{"type":"Feature","geometry":{"type":"Point","coordinates":[103.8510638,1.2842969]},"properties":{"groups":["The Singapore Security Meetup Group","Null Singapore - The Open Security Community"],"address":"Akamai Singapore office, 1 Raffles Place, #16-61, One Raffles Place Tower 2, Singapore 048616"}},{"type":"Feature","geometry":{"type":"Point","coordinates":[103.847069,1.280945]},"properties":{"groups":["Null Singapore - The Open Security Community","GoSG","DevOps Singapore","Singapore Scala Programmers","Singapore Software QA Meetup","Singapore Elixir Meetup","DevSecOps Singapore","DataKind SG","Singapore Spring User Group"],"address":"ThoughtWorks, 87B Amoy Street #04, Singapore 069906, Singapore, Singapore"}},{"type":"Feature","geometry":{"type":"Point","coordinates":[103.862409,1.31042]},"properties":{"groups":["HASKELL.SG","SingaporeJS","WordPress Singapore","Hackware","The Singapore Linux Meetup Group","PUGS (Postgres Users Group Singapore)","FOSSASIA Singapore OpenXLab Meetup","Singapore Magento User Group","HackerspaceSG","Papers We Love Singapore","Engineers.SG","Subhransu Behera"],"address":"HackerspaceSG, 344B King George's Avenue, King George's Building, 208576, Singapore"}},{"type":"Feature","geometry":{"type":"Point","coordinates":[103.8541121,1.2792463]},"properties":{"groups":["Agile Singapore","Live Agile Workshop & Forum Group"],"address":"Barclays, 10 Marina Boulevard, #23-01, Marina Bay Financial Centre Tower 2, Singapore"}},{"type":"Feature","geometry":{"type":"Point","coordinates":[103.8592661,1.2862737]},"properties":{"groups":["ArtScience Museum"],"address":"ArtScience Museum"}},{"type":"Feature","geometry":{"type":"Point","coordinates":[103.7383967,1.33023]},"properties":{"groups":["Maker Faire Singapore"],"address":"Science Centre Singapore"}},{"type":"Feature","geometry":{"type":"Point","coordinates":[103.850514,1.333791]},"properties":{"groups":["Creative Crew Singapore"],"address":"Toa Payoh Public Library, 6 Toa Payoh Central, Singapore 319191"}},{"type":"Feature","geometry":{"type":"Point","coordinates":[103.8542337,1.2808099]},"properties":{"groups":["R User Group - Singapore (RUGS)",".NET Developers Singapore","Microsoft User Groups (Singapore)","SingaporeJS","DataScience SG","Visual Studio ALM Singapore","Singapore Xamarin User group","Hacks/Hackers Singapore","DataKind SG"],"address":"Microsoft Auditorium (Singapore), One Marina Boulevard, Level 21 Auditorium, Singapore 018989 "}},{"type":"Feature","geometry":{"type":"Point","coordinates":[103.8459301,1.2807448]},"properties":{"groups":["Huge Singapore"],"address":"Huge Singapore, 33 Ann Siang Rd, Suite 31A"}},{"type":"Feature","geometry":{"type":"Point","coordinates":[103.7893207,1.2996411]},"properties":{"groups":["ReactJS Singapore","DataScience SG","Singapore Software QA Meetup"],"address":"Hive@Sandcrawler, 1 Fusionopolis View #08-01, Singapore"}},{"type":"Feature","geometry":{"type":"Point","coordinates":[103.8578323,1.2946917]},"properties":{"groups":["Singapore Ruby Group","Grumpy Gits SG","Agile Singapore","DataScience SG","Singapore Python User Group","Singapore Creative Coding Meetup","Singapore MusicTech Meetup","SingaporeCSS"],"address":"PayPal, 5 Temasek Blvd, #09-01 Suntec Tower Five, 038985, Singapore"}},{"type":"Feature","geometry":{"type":"Point","coordinates":[103.8578323,1.2946917]},"properties":{"groups":["Singapore Spring User Group","Singapore iOS Dev Scout Meetup","Hackware","Docker Singapore"],"address":"PayPal office in Suntec, 5 Temasek Blvd, #09-01 Suntec Tower Five, 038985 Nearest Mrt:Promenade(Yellow Line), Singapore"}},{"type":"Feature","geometry":{"type":"Point","coordinates":[103.8578323,1.2946917]},"properties":{"groups":["Singapore iOS Dev Scout Meetup","Singapore Geek Girls","Singapore CSS","Singapore Clojure Meetup","Bitcoins in Singapore"],"address":"Paypal at Suntec , 5 Temasek Blvd, #07-01 Suntec Tower Five, Nearest Mrt:Promenade(Yellow Line), Singapore"}},{"type":"Feature","geometry":{"type":"Point","coordinates":[103.849487,1.279644]},"properties":{"groups":["Singapore Ruby Group","PyData Singapore","CodingGirls SG","HackerNest Singapore Tech Socials"],"address":"Skyscanner, 39 Robinson Road, #09-01 Robinson Point, Singapore 068911"}},{"type":"Feature","geometry":{"type":"Point","coordinates":[103.848429,1.342617]},"properties":{"groups":["Hacks/Hackers Singapore","SingaporeJS","Agile Singapore"],"address":"SPH Auditorium, 1000 Toa Payoh North, News Centre, Singapore 318994 "}},{"type":"Feature","geometry":{"type":"Point","coordinates":[103.819836,1.352083]},"properties":{"groups":["DesignDojo Singapore","Design Dojo Singapore","Docker Singapore","SingaporeCSS"],"address":"Rakuten Crimson House, 138 Market Street, Lvl 32, CapitaGreen, 048946, Singapore"}},{"type":"Feature","geometry":{"type":"Point","coordinates":[103.819836,1.352083]},"properties":{"groups":["Null Singapore - The Open Security Community"],"address":"Singapore, North, East, South, West"}},{"type":"Feature","geometry":{"type":"Point","coordinates":[103.819836,1.352083]},"properties":{"groups":["Maker Faire Singapore","Science Centre Singapore ","Singapore University of Technology and Design","OpenBio Singapore"],"address":"Singapore University of Technology and Design, Cohort Classroom 11, 2.405 (Building 2, Level 4), 8 Somapah Road"}},{"type":"Feature","geometry":{"type":"Point","coordinates":[103.8423509,1.27777]},"properties":{"groups":["HASKELL.SG","Singapore Ruby Group","Singapore Djangonauts","Singapore Cloud Foundry Meetup","Singapore Algorithmic Trading Meetup","Emacs SG","SingaporeCSS","Singapore Clojure Meetup"],"address":"Pivotal Labs Singapore, 53A Craig Road"}},{"type":"Feature","geometry":{"type":"Point","coordinates":[103.859275,1.2863163]},"properties":{"groups":["ArtScience Museum"],"address":"ArtScience Museum, 10 Bayfront Avenue, Singapore 018956"}},{"type":"Feature","geometry":{"type":"Point","coordinates":[103.8513396,1.3025743]},"properties":{"groups":["Singapore Scala Programmers"],"address":"Lowercase, 1 McNally St, Blk D #01-01, Singapore"}}]}