{"type":"FeatureCollection","features":[{"type":"Feature","geometry":{"type":"Point","coordinates":[103.862409,1.31042]},"properties":{"groups":["HASKELL.SG","Hackware","The Singapore Linux Meetup Group","PUGS (Postgres Users Group Singapore)","WordPress Singapore","FOSSASIA Singapore OpenXLab Meetup","Singapore Magento User Group","HackerspaceSG","Papers We Love Singapore","Engineers.SG","Subhransu Behera"],"address":"HackerspaceSG, 344B King George's Avenue, King George's Building, 208576, Singapore"}},{"type":"Feature","geometry":{"type":"Point","coordinates":[103.7893207,1.2996411]},"properties":{"groups":["DataScience SG","ReactJS Singapore","Singapore Software QA Meetup"],"address":"Hive@Sandcrawler, 1 Fusionopolis View #08-01, Singapore"}},{"type":"Feature","geometry":{"type":"Point","coordinates":[103.8578323,1.2946917]},"properties":{"groups":["Singapore iOS Dev Scout Meetup","Singapore Spring User Group","Hackware","Docker Singapore","Singapore Java User Group"],"address":"PayPal office in Suntec, 5 Temasek Blvd, #09-01 Suntec Tower Five, 038985 Nearest Mrt:Promenade(Yellow Line), Singapore"}},{"type":"Feature","geometry":{"type":"Point","coordinates":[103.8485674,1.3430788]},"properties":{"groups":["Hacks/Hackers Singapore","SingaporeJS","Agile Singapore"],"address":"SPH News Center (T8.2/T8.3), 1000 Toa Payoh North Singapore 318994"}},{"type":"Feature","geometry":{"type":"Point","coordinates":[103.895674,1.306474]},"properties":{"groups":["SingaporeJS"],"address":"Tim & Wei's Residence, 244A Tanjong Katong Road, Singapore"}},{"type":"Feature","geometry":{"type":"Point","coordinates":[103.8542337,1.2808099]},"properties":{"groups":["R User Group - Singapore (RUGS)","Microsoft User Groups (Singapore)",".NET Developers Singapore","DataScience SG","Visual Studio ALM Singapore","Singapore Xamarin User group","Hacks/Hackers Singapore","DataKind SG","Singapore Mobile .Net Developers"],"address":"Microsoft Auditorium (Singapore), One Marina Boulevard, Level 21 Auditorium, Singapore 018989 "}},{"type":"Feature","geometry":{"type":"Point","coordinates":[103.788034,1.298131]},"properties":{"groups":["Bluemix Singapore","Asia VR Association - Singapore Virtual Reality meetup","Meteor Singapore","Ethereum Singapore","Hackware","AsiaVR Association - Singapore Virtual Reality meetup","PUGS (Postgres Users Group Singapore)","Android In Asia","Front End Developers Singapore","Singapore Ruby Group","Data Night Singapore","SingaporeCSS","Carousell","AsiaVR Association - Singapore Virtual Reality Meetup Group","National Supercomputing Centre","PyLadies SG","HackerNest Singapore Tech Socials","Google Cloud Platform User Group Singapore","A*PECSS and A*STARTCentral","Data Night","UP Singapore","IBM","#IoTSG","Cloud Native Singapore"],"address":"A*START Central, #05-01, JTC Launchpad, Blk 79, Ayer Rajah Crescent, Opposite to Fusionopolis, Singapore 139955"}},{"type":"Feature","geometry":{"type":"Point","coordinates":[103.847069,1.280945]},"properties":{"groups":["DevOps Singapore","Singapore Scala Programmers","Singapore Software QA Meetup","Singapore Elixir Meetup","GoSG","Null Singapore - The Open Security Community","DevSecOps Singapore","DataKind SG","Singapore Spring User Group"],"address":"ThoughtWorks, 87B Amoy Street #04, Singapore 069906, Singapore, Singapore"}},{"type":"Feature","geometry":{"type":"Point","coordinates":[103.7383744,1.3301728]},"properties":{"groups":["Maker Faire Singapore"],"address":"Science Centre Singapore"}},{"type":"Feature","geometry":{"type":"Point","coordinates":[103.8510638,1.2842969]},"properties":{"groups":["The Singapore Security Meetup Group","Null Singapore - The Open Security Community"],"address":"Akamai Singapore office, 1 Raffles Place, #16-61, One Raffles Place Tower 2, Singapore 048616"}},{"type":"Feature","geometry":{"type":"Point","coordinates":[103.8578323,1.2946917]},"properties":{"groups":["Singapore Geek Girls","Singapore CSS","Singapore Clojure Meetup","Bitcoins in Singapore","SingaporeCSS"],"address":"Paypal at Suntec , 5 Temasek Blvd, #07-01 Suntec Tower Five, Nearest Mrt:Promenade(Yellow Line), Singapore"}},{"type":"Feature","geometry":{"type":"Point","coordinates":[103.8592661,1.2862737]},"properties":{"groups":["ArtScience Museum"],"address":"ArtScience Museum"}},{"type":"Feature","geometry":{"type":"Point","coordinates":[103.850514,1.333791]},"properties":{"groups":["Creative Crew Singapore"],"address":"Toa Payoh Public Library, 6 Toa Payoh Central, Singapore 319191"}},{"type":"Feature","geometry":{"type":"Point","coordinates":[103.7893207,1.2996411]},"properties":{"groups":["Agile Singapore","Singapore Ruby Group"],"address":"Sandcrawler, 1 Fusionopolis View #08-01 S138577, Singapore"}},{"type":"Feature","geometry":{"type":"Point","coordinates":[103.819836,1.352083]},"properties":{"groups":["DesignDojo Singapore","Design Dojo Singapore","Docker Singapore","SingaporeCSS"],"address":"Rakuten Crimson House, 138 Market Street, Lvl 32, CapitaGreen, 048946, Singapore"}},{"type":"Feature","geometry":{"type":"Point","coordinates":[103.849487,1.279644]},"properties":{"groups":["PyData Singapore","CodingGirls SG","HackerNest Singapore Tech Socials","WordPress Singapore"],"address":"Skyscanner, 39 Robinson Road, #09-01 Robinson Point, Singapore 068911"}},{"type":"Feature","geometry":{"type":"Point","coordinates":[103.8578323,1.2946917]},"properties":{"groups":["Singapore Ruby Group","Agile Singapore","DataScience SG","Singapore Python User Group","Singapore Creative Coding Meetup","Singapore MusicTech Meetup","SingaporeCSS"],"address":"PayPal, 5 Temasek Blvd, #09-01 Suntec Tower Five, 038985, Singapore"}},{"type":"Feature","geometry":{"type":"Point","coordinates":[103.819836,1.352083]},"properties":{"groups":["Null Singapore - The Open Security Community"],"address":"Singapore, North, East, South, West"}},{"type":"Feature","geometry":{"type":"Point","coordinates":[103.8501056,1.2825522]},"properties":{"groups":["GoSG","Singapore iOS Dev Scout Meetup","Singapore Ruby Group","IxDA Singapore"],"address":"Grab, 138 Cecil Street, #16-01 Cecil Court, Singapore 069538, Singapore"}},{"type":"Feature","geometry":{"type":"Point","coordinates":[103.8449834,1.2749667]},"properties":{"groups":["ProductTank Singapore"],"address":"Yahoo Singapore, 60 Anson Rd, 079914"}},{"type":"Feature","geometry":{"type":"Point","coordinates":[103.8592773,1.2861964]},"properties":{"groups":["ArtScience Museum"],"address":"ArtScience Museum, 10 Bayfront Avenue, Singapore 018956"}},{"type":"Feature","geometry":{"type":"Point","coordinates":[103.8513396,1.3025743]},"properties":{"groups":["Singapore Scala Programmers"],"address":"Lowercase, 1 McNally St, Blk D #01-01, Singapore"}},{"type":"Feature","geometry":{"type":"Point","coordinates":[103.736132,1.333194]},"properties":{"groups":["Science Centre Singapore "],"address":"Science Centre Singapore, 15 Science Centre Road, Singapore 609081"}},{"type":"Feature","geometry":{"type":"Point","coordinates":[103.777515,1.332948]},"properties":{"groups":["Fedora in Singapore","SG Web Programming Workshop"],"address":"Ngee Ann Polytechnic, 535 Clementi Road, Singapore 599489"}},{"type":"Feature","geometry":{"type":"Point","coordinates":[103.849601,1.28983]},"properties":{"groups":["General Assembly Singapore","DevFest.Asia"],"address":"Collision 8, 1 North Bridge Road, #08-08, Singapore 179094"}}]}