{"type":"FeatureCollection","features":[{"type":"Feature","geometry":{"type":"Point","coordinates":[103.7870177,1.2968181]},"properties":{"groups":["Front End Developers Singapore","Ethereum Singapore","Data Night Singapore","SingaporeCSS","Carousell","AsiaVR Association - Singapore Virtual Reality Meetup Group","National Supercomputing Centre","PyLadies SG","HackerNest Singapore Tech Socials","Google Cloud Platform User Group Singapore","A*PECSS and A*STARTCentral","Data Night","UP Singapore","IBM","Meteor Singapore","Bluemix Singapore","#IoTSG","Cloud Native Singapore","Android In Asia","Elastic Meetup - SG","Robotics and Automation Singapore","StackUp","Apache Spark Singapore","Singapore Amazon Redshift user group"],"address":"NUS Enterprise@Blk71 , 71 Ayer Rajah Crescent #02-01 , NUS Enterprise@Blk71 , 71 Ayer Rajah Crescent #02-01 , Singapore"}},{"type":"Feature","geometry":{"type":"Point","coordinates":[103.8510423,1.2844526]},"properties":{"groups":["Null Singapore - The Open Security Community","The Singapore Security Meetup Group"],"address":"Akamai Singapore office, 1 Raffles Place, #16-61, One Raffles Place Tower 2, Singapore 048616"}},{"type":"Feature","geometry":{"type":"Point","coordinates":[103.853512,1.2985119]},"properties":{"groups":["OneMaker Group - OMG","IDA Labs","Singapore Makers","DataScience SG","The Singapore PHP User Group Meetup","General Assembly Singapore","Sustainable Living Lab (SL2)","CodingGirls SG","OneMaker Group (OMG)","Singapore PHP User Group","IxDA Singapore","Singapore Ruby Group","PyData Singapore","DataKind SG","Singapore DC/OS User Group","Singapore Self-driving Car Engineering Meetup","Singapore Full Stack Developer","Women Who Code Singapore","NeuroTechSG","FOSSASIA Singapore OpenXLab Meetup","Singapore Neo4j Meetup","BigData.SG & Hadoop.SG","Service Design Singapore"],"address":"#03-04, IDA Labs@NDC 111 Middle Road, National Design Centre, Singapore 188969., IDA Labs@NDC 111 Middle Road, National Design Centre"}},{"type":"Feature","geometry":{"type":"Point","coordinates":[103.8421658,1.2777083]},"properties":{"groups":["HASKELL.SG","Singapore Ruby Group","Singapore Djangonauts","Singapore Cloud Foundry Meetup","Singapore Algorithmic Trading Meetup","Emacs SG","SingaporeCSS","Singapore Clojure Meetup"],"address":"Pivotal Labs Singapore, 53 Craig Road #02-00"}},{"type":"Feature","geometry":{"type":"Point","coordinates":[103.8950269,1.3079162]},"properties":{"groups":["Null Singapore - The Open Security Community"],"address":"Singapore, North, East, South, West"}},{"type":"Feature","geometry":{"type":"Point","coordinates":[103.857925,1.294575]},"properties":{"groups":["SingaporeJS","Couchbase Singapore"],"address":"PayPal Singapore, Suntec Tower 5, 5 Temasek Boulevard #09-01 "}},{"type":"Feature","geometry":{"type":"Point","coordinates":[103.862473,1.310393]},"properties":{"groups":["PUGS (Postgres Users Group Singapore)","Papers We Love Singapore","WordPress Singapore","Engineers.SG","Subhransu Behera","HASKELL.SG","FOSSASIA Singapore OpenXLab Meetup","HackerspaceSG","Elm Singapore"],"address":"HackerspaceSG, 344B King George's Avenue, King George's Building, Singapore 208576"}},{"type":"Feature","geometry":{"type":"Point","coordinates":[103.8592661,1.2862737]},"properties":{"groups":["ArtScience Museum","DevFest.Asia","KopiJS","Hackware","FabCafe Singapore"],"address":"FabCafe, Lobby of ArtScience Museum, 6 Bayfront Avenue, Singapore 018974"}},{"type":"Feature","geometry":{"type":"Point","coordinates":[103.852437,1.282387]},"properties":{"groups":["R User Group - Singapore (RUGS)",".NET Developers Singapore","Visual Studio ALM Singapore","Singapore Xamarin User group","Hacks/Hackers Singapore","DataKind SG","Microsoft User Groups (Singapore)","Singapore Mobile .Net Developers","Visual Studio DevOps Singapore"],"address":"Microsoft Auditorium (Singapore), One Marina Boulevard, Level 21 Auditorium, Singapore 018989 "}},{"type":"Feature","geometry":{"type":"Point","coordinates":[103.8487429,1.2807142]},"properties":{"groups":["Singapore iOS Dev Scout Meetup","Singapore Ruby Group","IxDA Singapore","Grab Tech Thursdays"],"address":"Grab, 138 Cecil Street, #16-01 Cecil Court, Singapore 069538, Singapore"}},{"type":"Feature","geometry":{"type":"Point","coordinates":[103.8513396,1.3025743]},"properties":{"groups":["Singapore Scala Programmers"],"address":"Lowercase, 1 McNally St, Blk D #01-01, Singapore"}},{"type":"Feature","geometry":{"type":"Point","coordinates":[103.846797,1.2835103]},"properties":{"groups":["GoSG","Singapore Elixir Meetup","DevOps Singapore","DevSecOps Singapore","DataKind SG","Singapore Scala Programmers","Singapore Spring User Group"],"address":"ThoughtWorks, 87B Amoy Street #04, Singapore 069906, Singapore, Singapore"}},{"type":"Feature","geometry":{"type":"Point","coordinates":[103.8480068,1.2812571]},"properties":{"groups":["HackerNest Singapore Tech Socials","Ruby Tea Party  (SG)","Singapore Ruby Group"],"address":"TradeGecko, 121 Telok Ayer St, Singapore 068590"}},{"type":"Feature","geometry":{"type":"Point","coordinates":[103.7358111,1.3334158]},"properties":{"groups":["Maker Faire Singapore"],"address":"Science Centre Singapore, 15 Science Centre Road 609081"}},{"type":"Feature","geometry":{"type":"Point","coordinates":[103.857925,1.294575]},"properties":{"groups":["Singapore Spring User Group","Hackware","Singapore iOS Dev Scout Meetup","Docker Singapore","Singapore Java User Group"],"address":"PayPal office in Suntec, 5 Temasek Blvd, #09-01 Suntec Tower Five, 038985 Nearest Mrt:Promenade(Yellow Line), Singapore"}},{"type":"Feature","geometry":{"type":"Point","coordinates":[103.7893207,1.2996411]},"properties":{"groups":["Agile Singapore","Singapore Ruby Group"],"address":"Sandcrawler, 1 Fusionopolis View #08-01 S138577, Singapore"}},{"type":"Feature","geometry":{"type":"Point","coordinates":[103.852437,1.282387]},"properties":{"groups":["Microsoft User Groups (Singapore)"],"address":"Microsoft Singapore, One Marina Boulevard, Level 22, Meeting Room"}},{"type":"Feature","geometry":{"type":"Point","coordinates":[103.8494861,1.2796413]},"properties":{"groups":["PyData Singapore","CodingGirls SG","HackerNest Singapore Tech Socials","WordPress Singapore"],"address":"Skyscanner, 39 Robinson Road, #09-01 Robinson Point, Singapore 068911"}},{"type":"Feature","geometry":{"type":"Point","coordinates":[103.8505252,1.3335475]},"properties":{"groups":["Creative Crew Singapore"],"address":"Toa Payoh Public Library, 6 Toa Payoh Central, Singapore 319191"}},{"type":"Feature","geometry":{"type":"Point","coordinates":[103.773846,1.295053]},"properties":{"groups":["Singapore Python User Group","NUS Hackers"],"address":"NUS School of Computing, 13 Computing Drive, Singapore 117417"}},{"type":"Feature","geometry":{"type":"Point","coordinates":[103.857925,1.294575]},"properties":{"groups":["Singapore Creative Coding Meetup","Singapore MusicTech Meetup","Singapore Python User Group","SingaporeCSS","DataScience SG","Women Who Code Singapore"],"address":"PayPal, 5 Temasek Blvd, #09-01 Suntec Tower Five, 038985, Singapore"}},{"type":"Feature","geometry":{"type":"Point","coordinates":[103.825721,1.2909677]},"properties":{"groups":["Docker Singapore","Cloud Native Singapore","Elm Singapore","Product Design Singapore"],"address":"Honestbee, #04-01B Delta House, 2 Alexandra Road, 159919, Singapore"}},{"type":"Feature","geometry":{"type":"Point","coordinates":[103.857925,1.294575]},"properties":{"groups":["Bitcoins in Singapore","SingaporeCSS","SingaporeJS"],"address":"Paypal at Suntec , 5 Temasek Blvd, #07-01 Suntec Tower Five, Nearest Mrt:Promenade(Yellow Line), Singapore"}},{"type":"Feature","geometry":{"type":"Point","coordinates":[103.852437,1.282387]},"properties":{"groups":["Singapore Magento User Group"],"address":"Microsoft Singapore, One Marina Boulevard, Level 22, 018989, Singapore"}},{"type":"Feature","geometry":{"type":"Point","coordinates":[103.852437,1.282387]},"properties":{"groups":["WordPress Singapore","Singapore Mobile .Net Developers","Visual Studio DevOps Singapore","Microsoft User Groups (Singapore)"],"address":"Microsoft Singapore, Level 22, Room CF12, One Marina Boulevard, Singapore 018989"}},{"type":"Feature","geometry":{"type":"Point","coordinates":[103.8484179,1.342616]},"properties":{"groups":["Agile Singapore","Hacks/Hackers Singapore","Singapore PHP User Group"],"address":"SPH News Center (T8.2/T8.3), 1000 Toa Payoh North Singapore 318994"}},{"type":"Feature","geometry":{"type":"Point","coordinates":[103.7358111,1.3334158]},"properties":{"groups":["Science Centre Singapore "],"address":"Science Centre Singapore, 15 Science Centre Road, Singapore 609081"}},{"type":"Feature","geometry":{"type":"Point","coordinates":[103.8474403,1.2761294]},"properties":{"groups":["AnalyticsTech"],"address":"AXA tower, 34-01, , Singapore 068811"}},{"type":"Feature","geometry":{"type":"Point","coordinates":[103.777515,1.332948]},"properties":{"groups":["Fedora in Singapore","SG Web Programming Workshop"],"address":"Ngee Ann Polytechnic, 535 Clementi Road, Singapore 599489"}},{"type":"Feature","geometry":{"type":"Point","coordinates":[103.9354203,1.3475336]},"properties":{"groups":["Sustainable Living Lab (SL2)"],"address":"Block 425 Jurong West Ave 1 & Block 897A Tampines Street 81, , Singapore"}},{"type":"Feature","geometry":{"type":"Point","coordinates":[103.7892949,1.2998134]},"properties":{"groups":["Singapore DC/OS User Group","GoSG","OneSmartPlace.co - Singapore IoT Hub","HackerNest Singapore Tech Socials","API Craft Singapore"],"address":"DBS Asia X (DAX), Sandcrawler Building - 1 Fusionopolis View, #07-03, Singapore 138577"}},{"type":"Feature","geometry":{"type":"Point","coordinates":[103.773204,1.3053507]},"properties":{"groups":["OpenBio Singapore"],"address":"Starbucks at University Town, NUS, 8 College Ave East, Singapore"}},{"type":"Feature","geometry":{"type":"Point","coordinates":[103.849345,1.2899203]},"properties":{"groups":["General Assembly Singapore","DevFest.Asia","Singapore NoSQL Meetup"],"address":"Collision 8, 1 North Bridge Road High Street Centre, #08-08, Singapore 179094"}},{"type":"Feature","geometry":{"type":"Point","coordinates":[103.7755368,1.2926939]},"properties":{"groups":["NUS Hackers","Docker Singapore"],"address":"i3 Auditorium, 21 Heng Mui Keng Terrace, Icube Building, Singapore 119613, "}},{"type":"Feature","geometry":{"type":"Point","coordinates":[103.6831069,1.3419702]},"properties":{"groups":["NTU Open Source Society","Hackware"],"address":"The Nest Theatre @ Innovation Centre, , Singapore 63"}},{"type":"Feature","geometry":{"type":"Point","coordinates":[103.8318502,1.3077426]},"properties":{"groups":["Singapore Geek Girls","General Assembly Singapore","WordPress Singapore","DevFest.Asia","Singapore Ruby Group","CodingGirls SG","Hackware","TechLadies"],"address":"General Assembly, 8 Claymore Hill, Level #03-01, Spacemob, Singapore 229572"}},{"type":"Feature","geometry":{"type":"Point","coordinates":[103.852437,1.282387]},"properties":{"groups":["Hacks/Hackers Singapore","Microsoft User Groups (Singapore)"],"address":"Microsoft Singapore - 22BR-01, 1 Marina Boulevard #22-01 One Marina Boulevard Singapore 018989"}},{"type":"Feature","geometry":{"type":"Point","coordinates":[103.7736688,1.3065194]},"properties":{"groups":["NUS Hackers"],"address":"SR3, Town Plaza, University Town, NUS, , Singapore"}},{"type":"Feature","geometry":{"type":"Point","coordinates":[103.9319315,1.3589041]},"properties":{"groups":["Sustainable Living Lab (SL2)"],"address":"Sustainable Living Lab (SL2), 1 Tampines Street 73, Singapore 528704"}},{"type":"Feature","geometry":{"type":"Point","coordinates":[103.775662,1.292432]},"properties":{"groups":["Apache Apex Next Gen Native Hadoop Big Data, Singapore","Hackware","CodingGirls SG","NUS Hackers"],"address":"The Hangar, iCube, #01-01/02, 21 Heng Mui Keng Terrace, Singapore 119613, "}},{"type":"Feature","geometry":{"type":"Point","coordinates":[103.8351346,1.2902491]},"properties":{"groups":["#IoTSG","Next Gen Native Hadoop Big Data Apex Users Group, Singapore"],"address":"Millennium Grand Copthorne Waterfront Hotel,  392 Havelock Road, Singapore, 169663 "}},{"type":"Feature","geometry":{"type":"Point","coordinates":[103.799213,1.2764794]},"properties":{"groups":["Google Cloud Platform User Group Singapore","DevFest.Asia","Android In Asia","PyData Singapore","General Assembly Singapore","Hackware","TensorFlow and Deep Learning Singapore","Cloud Native Singapore","UP Singapore"],"address":"Google Singapore, Maple Business City II, 70 Pasir Panjang Road, #03-01, Mapletree Business City II Singapore, 117371 undefined"}},{"type":"Feature","geometry":{"type":"Point","coordinates":[103.8440158,1.2789325]},"properties":{"groups":["OneSmartPlace.co - Singapore IoT Hub"],"address":"Alpha Camp, 43B Tanjong Pagar Road, Singapore"}},{"type":"Feature","geometry":{"type":"Point","coordinates":[103.8475434,1.2881179]},"properties":{"groups":["Ethereum Singapore","Singapore Self-driving Car Engineering Meetup","Artificial Intelligence Singapore","BigData.SG & Hadoop.SG","AsiaVR Association - Singapore Virtual Reality Meetup Group"],"address":"SGInnovate, 32 Carpenter Street, Singapore"}},{"type":"Feature","geometry":{"type":"Point","coordinates":[103.8572793,1.2936854]},"properties":{"groups":["OneSmartPlace.co - Singapore IoT Hub","Next Gen Native Hadoop Big Data Apex Users Group, Singapore"],"address":"Suntec Singapore Convention & Exhibition Centre, 1 Raffles Boulevard, Suntec City, Singapore 039593"}},{"type":"Feature","geometry":{"type":"Point","coordinates":[103.9319315,1.3589041]},"properties":{"groups":["Sustainable Living Lab (SL2)"],"address":"Community Lab at Uwcsea East Campus - Tampines, 1 Tampines Street 73, 528704, Singapore 528704"}},{"type":"Feature","geometry":{"type":"Point","coordinates":[103.849996,1.293942]},"properties":{"groups":["First Code Academy"],"address":"First Code Academy Singapore, #04-13 Stamford Court, 61 Stamford Road, Singapore 178892"}},{"type":"Feature","geometry":{"type":"Point","coordinates":[103.846797,1.2835103]},"properties":{"groups":["DevOps Singapore","CodingGirls SG","DataKind SG","Singapore Elixir Meetup","Singapore Scala Programmers","ThoughtWorks Talks Tech","Cloud Native Singapore"],"address":"ThoughtWorks , 18 cross street #11-08 China Sq Central (S)048423, Singapore"}},{"type":"Feature","geometry":{"type":"Point","coordinates":[103.7358111,1.3334158]},"properties":{"groups":["FOSSASIA Singapore OpenXLab Meetup","Ethereum Singapore"],"address":"Science Centre, 15 Science Centre Road , Singapore"}}]}