{"type":"FeatureCollection","features":[{"type":"Feature","geometry":{"type":"Point","coordinates":[103.852437,1.282387]},"properties":{"groups":["Microsoft User Groups (Singapore)"],"address":"Microsoft Singapore, One Marina Boulevard, Level 22, Meeting Room"}},{"type":"Feature","geometry":{"type":"Point","coordinates":[103.857925,1.294575]},"properties":{"groups":["Singapore CSS","Singapore Clojure Meetup","Bitcoins in Singapore","SingaporeCSS"],"address":"Paypal at Suntec , 5 Temasek Blvd, #07-01 Suntec Tower Five, Nearest Mrt:Promenade(Yellow Line), Singapore"}},{"type":"Feature","geometry":{"type":"Point","coordinates":[103.853512,1.2985119]},"properties":{"groups":["Singapore Neo4j Meetup","Personalized Eyewear","DataScience SG","Singapore Creative Coding Meetup","ONE Maker Group","Apache Spark Singapore","General Assembly Singapore","Product Design Singapore","DataKind SG","Hackware","Singapore Makers","Lean Kanban Singapore (Limited WIP Society)","Agile Coaching Circles Singapore","Singapore Scala Programmers","OneMaker Group - OMG","IDA Labs","The Singapore PHP User Group Meetup","Sustainable Living Lab (SL2)","CodingGirls SG","OneMaker Group (OMG)","Singapore PHP User Group","IxDA Singapore","Singapore Ruby Group","PyData Singapore","Singapore DC/OS User Group","Singapore Self-driving Car Engineering Meetup","Singapore Full Stack Developer"],"address":"#03-04, IDA Labs@NDC 111 Middle Road, National Design Centre, Singapore 188969., IDA Labs@NDC 111 Middle Road, National Design Centre"}},{"type":"Feature","geometry":{"type":"Point","coordinates":[103.7893207,1.2996411]},"properties":{"groups":["ReactJS Singapore","Singapore Software QA Meetup"],"address":"Hive@Sandcrawler, 1 Fusionopolis View #08-01, Singapore"}},{"type":"Feature","geometry":{"type":"Point","coordinates":[103.8470646,1.2810715]},"properties":{"groups":["Singapore Scala Programmers","GoSG","Singapore Elixir Meetup","DevOps Singapore","DevSecOps Singapore","DataKind SG","Singapore Spring User Group"],"address":"ThoughtWorks, 87B Amoy Street #04, Singapore 069906, Singapore, Singapore"}},{"type":"Feature","geometry":{"type":"Point","coordinates":[103.8592663,1.2862738]},"properties":{"groups":["ArtScience Museum"],"address":"ArtScience Museum"}},{"type":"Feature","geometry":{"type":"Point","coordinates":[103.862473,1.310393]},"properties":{"groups":["HASKELL.SG","FOSSASIA Singapore OpenXLab Meetup","The Singapore Linux Meetup Group","Singapore Magento User Group","HackerspaceSG","PUGS (Postgres Users Group Singapore)","Papers We Love Singapore","WordPress Singapore","Engineers.SG","Subhransu Behera"],"address":"HackerspaceSG, 344B King George's Avenue, King George's Building, 208576, Singapore"}},{"type":"Feature","geometry":{"type":"Point","coordinates":[103.7893207,1.2996411]},"properties":{"groups":["Agile Singapore","Singapore Ruby Group"],"address":"Sandcrawler, 1 Fusionopolis View #08-01 S138577, Singapore"}},{"type":"Feature","geometry":{"type":"Point","coordinates":[103.8505252,1.3335475]},"properties":{"groups":["Creative Crew Singapore"],"address":"Toa Payoh Public Library, 6 Toa Payoh Central, Singapore 319191"}},{"type":"Feature","geometry":{"type":"Point","coordinates":[103.8472804,1.2757561]},"properties":{"groups":["Linux Kernel Developers","Singapore Python User Group","OpenStack Singapore","FOSSASIA Singapore OpenXLab Meetup"],"address":"8 Shenton Way, #10-00 AXA Tower, Red Hat Asia Pacific Pte Ltd, Singapore"}},{"type":"Feature","geometry":{"type":"Point","coordinates":[103.8494861,1.2796413]},"properties":{"groups":["PyData Singapore","CodingGirls SG","HackerNest Singapore Tech Socials","WordPress Singapore"],"address":"Skyscanner, 39 Robinson Road, #09-01 Robinson Point, Singapore 068911"}},{"type":"Feature","geometry":{"type":"Point","coordinates":[103.857925,1.294575]},"properties":{"groups":["Agile Singapore","DataScience SG","Singapore Python User Group","Singapore Creative Coding Meetup","Singapore MusicTech Meetup","SingaporeCSS"],"address":"PayPal, 5 Temasek Blvd, #09-01 Suntec Tower Five, 038985, Singapore"}},{"type":"Feature","geometry":{"type":"Point","coordinates":[103.857925,1.294575]},"properties":{"groups":["Singapore Spring User Group","Singapore iOS Dev Scout Meetup","Hackware","Docker Singapore","Singapore Java User Group"],"address":"PayPal office in Suntec, 5 Temasek Blvd, #09-01 Suntec Tower Five, 038985 Nearest Mrt:Promenade(Yellow Line), Singapore"}},{"type":"Feature","geometry":{"type":"Point","coordinates":[103.857925,1.294575]},"properties":{"groups":["SingaporeJS"],"address":"PayPal Singapore, Suntec Tower 5, 5 Temasek Boulevard #09-01 "}},{"type":"Feature","geometry":{"type":"Point","coordinates":[103.852437,1.282387]},"properties":{"groups":[".NET Developers Singapore","R User Group - Singapore (RUGS)","DataScience SG","Microsoft User Groups (Singapore)","Visual Studio ALM Singapore","Singapore Xamarin User group","Hacks/Hackers Singapore","DataKind SG","Singapore Mobile .Net Developers","Visual Studio DevOps Singapore"],"address":"Microsoft Auditorium (Singapore), One Marina Boulevard, Level 21 Auditorium, Singapore 018989 "}},{"type":"Feature","geometry":{"type":"Point","coordinates":[103.8487429,1.2807142]},"properties":{"groups":["GoSG","Singapore iOS Dev Scout Meetup","Singapore Ruby Group","IxDA Singapore","Grab Tech Thursdays"],"address":"Grab, 138 Cecil Street, #16-01 Cecil Court, Singapore 069538, Singapore"}},{"type":"Feature","geometry":{"type":"Point","coordinates":[103.819836,1.352083]},"properties":{"groups":["Null Singapore - The Open Security Community"],"address":"Singapore, North, East, South, West"}},{"type":"Feature","geometry":{"type":"Point","coordinates":[103.8421658,1.2777083]},"properties":{"groups":["HASKELL.SG","Singapore Ruby Group","Singapore Djangonauts","Singapore Cloud Foundry Meetup","Singapore Algorithmic Trading Meetup","Emacs SG","SingaporeCSS","Singapore Clojure Meetup"],"address":"Pivotal Labs Singapore, 53 Craig Road #02-00"}},{"type":"Feature","geometry":{"type":"Point","coordinates":[103.8451661,1.2748648]},"properties":{"groups":["ProductTank Singapore"],"address":"Yahoo Singapore, 60 Anson Rd, 079914"}},{"type":"Feature","geometry":{"type":"Point","coordinates":[103.8592661,1.2862737]},"properties":{"groups":["ArtScience Museum","DevFest.Asia","KopiJS","Hackware"],"address":"FabCafe Singapore, ArtScience Museum, 6 Bayfront Avenue, S018974, "}},{"type":"Feature","geometry":{"type":"Point","coordinates":[103.8513396,1.3025743]},"properties":{"groups":["Singapore Scala Programmers"],"address":"Lowercase, 1 McNally St, Blk D #01-01, Singapore"}},{"type":"Feature","geometry":{"type":"Point","coordinates":[103.852437,1.282387]},"properties":{"groups":["Singapore Magento User Group"],"address":"Microsoft Singapore, One Marina Boulevard, Level 22, 018989, Singapore"}},{"type":"Feature","geometry":{"type":"Point","coordinates":[103.7358111,1.3334158]},"properties":{"groups":["Science Centre Singapore "],"address":"Science Centre Singapore, 15 Science Centre Road, Singapore 609081"}},{"type":"Feature","geometry":{"type":"Point","coordinates":[103.777515,1.332948]},"properties":{"groups":["Fedora in Singapore","SG Web Programming Workshop"],"address":"Ngee Ann Polytechnic, 535 Clementi Road, Singapore 599489"}},{"type":"Feature","geometry":{"type":"Point","coordinates":[103.849345,1.2899203]},"properties":{"groups":["General Assembly Singapore","DevFest.Asia"],"address":"Collision 8, 1 North Bridge Road, #08-08, Singapore 179094"}},{"type":"Feature","geometry":{"type":"Point","coordinates":[103.775662,1.292432]},"properties":{"groups":["Apache Apex Next Gen Native Hadoop Big Data, Singapore","Hackware","CodingGirls SG","NUS Hackers"],"address":"The Hangar, iCube, #01-01/02, 21 Heng Mui Keng Terrace, Singapore 119613, "}},{"type":"Feature","geometry":{"type":"Point","coordinates":[103.843198,1.279576]},"properties":{"groups":["OneSmartPlace.co - Singapore IoT Hub"],"address":"Alpha Camp, 43B Tanjong Pagar Road, Singapore"}}]}